Lender,Address,Latitude,Longitude
Ace Cash Express,"810 E Wishkah St Aberdeen WA, 98520",46.97744,-123.80892
Advance America Cash Advance,"1029 East Wishkah Street Suite B Aberdeen WA, 98520",46.97718,-123.80608
Advance Cash,"209 East Wishkah Street Aberdeen WA, 98520",46.97517,-123.8155
Harbor Adjustment Company,"316 West Heron Street Aberdeen WA, 98520",46.9754,-123.81387
Paycheck,"716 West Market Street Aberdeen WA, 98520",46.971327,-123.826041
Paycheck Financial Centers,"716 W Market St Aberdeen WA, 98520",46.971327,-123.826041
Rent A Center,"2703 Sumner Ave Aberdeen WA, 98520",46.97577,-123.85077
Cash Express,"11980 West Sunset Highway Airway Heights WA, 99001",47.643504,-117.57632
Moneytree,"12924 W Sunset Hwy Airway Heights WA, 99001",47.643273,-117.589979
Ace America’s Cash Express,"2105 Auburn Way South Suite D Auburn WA, 98002",47.2902,-122.20168
Ace America’s Cash Express,"1537 Auburn Way N Ste A Auburn WA, 98002",47.322155,-122.221918
Advance America,"1317 Auburn Way North Auburn WA, 98002",47.319459,-122.224037
Advance Checking,"913 D Street Southeast Auburn WA, 98002",47.299751,-122.224476
Auburn Discount Auto,"4111 Auburn Way North Auburn WA, 98002",47.344616,-122.222814
CASH 1,"2120 Auburn Way N Auburn WA, 98002",47.326231,-122.220886
Check Into Cash,"1210 Auburn Way North Suite A Auburn WA, 98002",47.318911,-122.22088
Checkmate,"901 Auburn Way North Auburn WA, 98002",47.316187,-122.223278
Checkmate Check Cashing,"34910 Enchanted Pkwy S Auburn WA, 98003",47.288957,-122.312432
Dollarwise,"2816 Auburn Way North Auburn WA, 98002",47.332685,-122.220714
Dollarwise,"2146 Sw 336th St Auburn WA, 98001",47.3,-122.25
Emergency Cash,"2120 Auburn Way N Auburn WA, 98002",47.326231,-122.220886
CASH1,"Auburn Auburn WA, 98001",47.3,-122.25
A A A A Inc,"Po Box 3221 Bellevue WA, 98009",47.620531,-122.20772
Check Cashing Money Tree,"10692 Northeast 8th Street Bellevue WA, 98004",47.617719,-122.196605
Check Into Cash,"15015 Main Street Suite 103 Bellevue WA, 98007",47.608317,-122.142529
Check Masters,"225 Bellevue Way Northeast Bellevue WA, 98004",47.612554,-122.202123
Check Masters,"Crossroads Bellevue WA, 98004",47.62,-122.2
Check Masters,"1313 156Th Avenue Northeast Suite 205 Bellevue WA, 98007",47.62205,-122.13249
Check Masters,"12816 Southeast 38th Street Suite C Bellevue WA, 98006",47.575735,-122.168645
Debtnet Financial Services,"13353 Bel Red Road Suite 107 Bellevue WA, 98005",47.622298,-122.16219
F & E Check Protection Systems,"845 106th Avenue Northeast Bellevue WA, 98004",47.618617,-122.199533
F & E Check Protection Systems,"322 Center Street Bellevue WA, 82633",47.6144,-122.1923
F & E Check Protection Systems,"3245 110th Avenue Southeast Bellevue WA, 98004",47.580711,-122.194274
Mc Carthy Finance Inc,"12816 Southeast 38th Street Suite C Bellevue WA, 98006",47.575735,-122.168645
Moneytree,"10692 Ne 8th St Bellevue WA, 98004",47.617719,-122.196605
Moneytree,"14921 Ne 20th St Bellevue WA, 98007",47.627658,-122.141454
Ace Cash Advance,"1658 Birchwood Ave Bellingham WA, 98225",48.774907,-122.496061
Ace Cash Express,"4145 Meridian St Bellingham WA, 98226",48.79314,-122.4861
Ace Cash Express,"3924 Primrose Ln Bellingham WA, 98226",48.784267,-122.476139
Ace Cash Express,"1070 Lakeway Dr Bellingham WA, 98229",48.744431,-122.461011
Advance America,"1187 East Sunset Drive Bellingham WA, 98226",48.772487,-122.460447
Check Into Cash,"3908 Meridian Street Suite 106 Bellingham WA, 98226",48.78579,-122.48542
Check Into Cash of Washington,"324 36th St Bellingham WA, 98225",48.7315,-122.4703
Check Master,"711 E Holly at Lakeway Bellingham WA, 98225",-1.75,30.5
Check Station,"711 East Holly Street Bellingham WA, 98225",48.745481,-122.472062
Moneytree,"4220 Meridian Street Suite A Bellingham WA, 98226",48.79414,-122.4859
Action Tax Express,"20611 Bothell Everett Highway Bothell WA, 98012",47.810671,-122.206843
Advance America,"20611 Bothell Everett Highway Suite Bothell WA, 98012",47.810671,-122.206843
Advance America,"18827 Bothell Way Ne Ste 106 Bothell WA, 98011",47.76493,-122.210563
Allied Cash Advance,"20806 Bothell Everett Hwy Bothell WA, 98021",47.809024,-122.208817
Cell World,"20611 Bothell Everett Highway Suite E Bothell WA, 98012",47.810671,-122.206843
Check Masters,"17208 Bothell Way Northeast Bothell WA, 98011",47.752665,-122.211383
Check Masters,"2020 Maltby Road Bothell WA, 98021",47.80878,-122.206
Mc Carthy Finance Inc,"17208 Bothell Way Northeast Bothell WA, 98011",47.752665,-122.211383
Moneytree,"18001 Bothell Everett Highway Suite V Bothell WA, 98012",47.834067,-122.209333
Moneytree,"4436 Rainier Ave S Bothell WA, 98011",47.76,-122.19
Ace Cash Advance,"3100 Kitsap Way Bremerton WA, 98312",47.57201,-122.658417
Ace Cash Advance,"5060 State Highway 303 Ne Ste Bremerton WA, 98311",47.61094,-122.62806
Advance America,"1550 Northeast Riddell Road Suite N Bremerton WA, 98310",47.607583,-122.631226
Cash Advantedge,"3320 Wheaton Way Bremerton WA, 98310",47.595105,-122.628982
Cash Box,"1405 Northeast Mcwilliams Rd Ste 103 Bremerton WA, 98311",47.620117,-122.630628
Cashback Catalog Sales Inc,"5050 State Highway 303 Northeast Suite 1 Bremerton WA, 98311",47.609974,-122.6275
Check Into Cash of Washington,"4203 Wheaton Way Suite D Bremerton WA, 98310",47.603604,-122.62962
Check-X-Change,"4110 Wheaton Way Bremerton WA, 98310",47.602009,-122.628794
Moneytree,"3720 Kitsap Way Bremerton WA, 98312",47.570545,-122.664679
Moneytree,"4110 Wheaton Way # A Bremerton WA, 98310",47.602009,-122.628794
Mr Cash,"3320 Wheaton Way Bremerton WA, 98310",47.595105,-122.628982
Ace America’s Cash Advance,"14615 1st Avenue South Burien WA, 98168",47.471691,-122.334275
Check Into Cash,"15728 1st Avenue South Burien WA, 98148",47.461671,-122.332671
Emergency Cash,"15405 1St Ave S Burien WA, 98148",47.464793,-122.334294
Hedman Co,"14042 8th Avenue South Burien WA, 98168",47.492838,-122.323268
Money Tree,"116 Southwest 148th Street Burien WA, 98166",47.471421,-122.33475
Ace America’s Cash Advance,"27009 Pacific Highway South Des Moines WA, 98198",47.359438,-122.309582
Advance America,"21423 International Boulevard Des Moines WA, 98198",47.41156,-122.29788
Dollarwise,"22848 Pacific Highway South Des Moines WA, 98198",47.39705,-122.29546
Advance America,"22611 76th Avenue West Edmonds WA, 98026",47.793915,-122.334861
Advance Till Payday,"22315 Highway 99 Edmonds WA, 98026",47.79658,-122.33382
Cash Store,"23632 Highway 99 Edmonds WA, 98026",47.78483,-122.34253
Checkmate,"23830 Aurora Avenue North Edmonds WA, 98026",47.78,-122.34
Ace America’s Cash Advance,"5108 Evergreen Way Suite 1B Everett WA, 98203",47.95055,-122.21412
Ace America’s Cash Advance,"11216 Highway 99 Everett WA, 98204",47.893146,-122.253207
Ace Cash Advance,"7424 Evergreen Way Everett WA, 98203",47.93137,-122.220854
Ace Cash Advance,"11802 Evergreen Way Everett WA, 98204",47.89073,-122.25731
Advance America,"1001 North Broadway Suite B3 Everett WA, 98201",48.00418,-122.20084
Advance America,"10121 Evergreen Way Suite 27 Everett WA, 98204",47.90632,-122.2425
Advance America,"9414 State Avenue Everett WA, 98201",47.98,-122.21
Advance Til Payday,"2024 Broadway Everett WA, 98201",47.990197,-122.201724
Cascade Federal Credit Union,"12916 4th Ave W Suite A Everett WA, 98204",47.880903,-122.239205
Cash In A Flash,"7606 Beverly Blvd Suite B Everett WA, 98203",47.929119,-122.212048
Check Into Cash,"1242 East State Avenue Everett WA, 98201",47.98,-122.21
Check Into Cash,"7601 Evergreen Way Everett WA, 98203",47.927749,-122.219323
Check Into Cash,"1604a Broadway Everett WA, 98201",47.996093,-122.20158
Check Masters,"2003 132nd St Se Murphys Cor Everett WA, 98201",47.87824,-122.20538
Check Masters,"210 Sw Everett Mall Way Everett WA, 98204",47.905632,-122.236621
Check Masters,"2020 Maltby Rd Thrashers Cor Everett WA, 98201",47.98,-122.21
Check Masters,"1418 1st Ave Pike Pl Everett WA, 98201",47.98,-122.21
Check-X-Change,"209 East Casino Road Everett WA, 98208",47.92199,-122.23151
Check-X-Change,"717 128th Street Southwest Everett WA, 98204",47.882463,-122.243593
Check-X-Change,"902 North Broadway Suite D Everett WA, 98201",48.005606,-122.1983
Dollarwise,"4027 Rucker Avenue Suite A Everett WA, 98201",47.963485,-122.210346
Eagle Cash Express,"9610 Evergreen Way Everett WA, 98204",47.910897,-122.23879
Loan Mart Money Mart,"315 E Casino Rd Ste B Everett WA, 98208",47.92202,-122.22785
Money Mart,"12720 4th Avenue West Everett WA, 98204",47.882471,-122.239451
Money Mart,"717-128 Street Southwest Everett WA, 98201",47.98,-122.21
Moneytree,"309 East Casino Road Everett WA, 98208",47.92202,-122.22793
Moneytree,"717 128th Street Southwest Suite A100 Everett WA, 98204",47.882463,-122.243593
Moneytree,"902 N Broadway Ste D Everett WA, 98201",48.005606,-122.1983
Payday Express,"9623 32nd St Se Ste B101 Everett WA, 98205",47.967633,-122.101476
Ace America’s Cash Advance,"27009 Pacific Highway South Federal Way WA, 98003",47.267296,-122.33395
Advance America,"1706 South 320th Street Federal Way WA, 98003",47.316143,-122.311657
Advance America,"34029 Hoyt Rd Sw Federal Way WA, 98023",47.296385,-122.382506
Advance America,"27400 Pacific Hwy S Federal Way WA, 98003",47.356327,-122.309251
Allied Cash Advance,"28839 Military Rd S Federal Way WA, 98003",47.34274,-122.30121
Cash Flow,"32700 Pacific Highway South Suite 8 Federal Way WA, 98003",47.30852,-122.312857
Checkmate,"34910 Enchanted Pkwy S Federal Way WA, 98003",47.288957,-122.312432
Check Rite,"507 Broadway Street Federal Way WA, 82901",41.58637,-109.21937
Dollarwise,"31007 Pacific Highway South Federal Way WA, 98003",47.323704,-122.313729
Dollarwise,"2146 Southwest 336th Street Federal Way WA, 98023",47.30068,-122.362374
Emergency Cash Federal Way,"28631 Pacific Hwy S Federal Way WA, 98003",47.344345,-122.312766
Fast Cash Loans,"34507 Pacific Highway South Suite 3 Federal Way WA, 98003",47.292195,-122.317078
Money Services,"2020 South 320th Street Federal Way WA, 98003",47.317158,-122.307046
Moneytree,"31625 Pacific Highway South Federal Way WA, 98003",47.317958,-122.313902
Pfh Inc,"33320 9th Ave S Ste 200 Federal Way WA, 98003",47.303282,-122.320686
Ace America’s Cash Advance,"3600 W Clearwater Ave Kennewick WA, 99336",46.212711,-119.169819
Advance America,"4430 West Clearwater Avenue Kennewick WA, 99336",46.21247,-119.18136
Allied Cash Advance,"3001 W 10th Ave Kennewick WA, 99336",46.198208,-119.163622
Armada Corporation,"1045 West Columbia Drive Kennewick WA, 99336",46.21641,-119.132119
Associated Credit Service,"Kennewick Kennewick WA, 99336",46.2088643145344,-119.223593913299
Cash ASAP,"4008 W 27th Ave Kennewick WA, 99337",46.185048,-119.175309
Cash Store,"2531 West Kennewick Avenue Kennewick WA, 99336",46.20936,-119.15575
Cash Store,"133 N Ely St Kennewick WA, 99336",46.21066,-119.15891
Check Into Cash,"4711 W Clearwater Ave Kennewick WA, 99336",46.211899,-119.183216
Checks Cashed Moneytree,"228 N Benton St Kennewick WA, 99336",46.211829,-119.119551
Cottonwood Financial Lp,"2531 W Kennewick Ave Kennewick WA, 99336",46.20936,-119.15575
Money Tree,"220 Vista Way Kennewick WA, 99336",46.2121,-119.15818
Moneytree Inc,"3600 West Clearwater Avenue Kennewick WA, 99336",46.212711,-119.169819
Nationwide Budget Finance,"4218 West Clearwater Avenue Kennewick WA, 99336",46.212699,-119.178061
Quik Cash,"4218 W Clearwater Ave Kennewick WA, 99336",46.212699,-119.178061
Rent A Center,"3600 W Clearwater Ave Kennewick WA, 99336",46.212711,-119.169819
A 1 Advance Checking,"517 Central Avenue North Kent WA, 98032",47.385344,-122.231471
Ace America’s Cash Advance,"25445 104th Ave Se Ste 102 Kent WA, 98030",47.373471,-122.202873
Ace America’s Cash Advance,"1432 W Meeker St Kent WA, 98032",47.380822,-122.252934
Advance America,"1313 West Meeker Street Kent WA, 98032",47.38183,-122.250366
Advance America,"26019 104th Avenue Southeast Kent WA, 98030",47.368206,-122.202932
Advance America,"228 Washington Ave S Kent WA, 98032",47.379684,-122.245936
Advance America,"13003 Se Kent Kangley Rd Ste 1 Kent WA, 98030",47.357191,-122.168014
Advance Til Payday 0913,"1529 W Meeker St Ste 102 Kent WA, 98032",47.381629,-122.254933
Allied Cash Advance,"10216 Se 256th St Ste 104 Kent WA, 98030",47.373223,-122.204017
CASH 1,"26136 Pacific Hwy S Kent WA, 98032",47.367011,-122.304229
Cash Advantedge,"25841 104th Ave Se Kent WA, 98030",47.370088,-122.203178
Check Into Cash,"10601 Southeast 240Th Street Kent WA, 98031",47.38662,-122.199641
Check Into Cash,"23301 Pacific Hwy S Kent WA, 98032",47.39284,-122.29669
Check Masters,"118 Central Avenue South Kent WA, 98032",47.38174,-122.23098
Checkmate,"144 Washington Avenue North Kent WA, 98032",47.382003,-122.247065
Dollarwise,"10426 Southeast Kent Kangley Road Kent WA, 98030",47.37227,-122.199997
Dollarwise,"167Th & Kent Kangley Kent WA, 98042",47.36,-122.11
Monetary Management Of Ca Inc,"26122 Pacific Hwy S Kent WA, 98032",47.366938,-122.302785
Moneytree,"25260 104th Ave Se Kent WA, 98030",47.374405,-122.201883
Northwest Payday Loans,"321 Washington Avenue South Kent WA, 98032",47.378583,-122.248491
Pacific Checks Inc,"10426 Se Kent Kangley Rd Kent WA, 98030",47.37227,-122.199997
Pacific Checks Inc,"22848 Pacific Highway South Kent WA, 98032",47.382311,-122.297422
Check Into Cash,"8548 122nd Ave Ne Kirkland WA, 98033",47.680289,-122.177679
Check Into Cash,"11420 Northeast 124th Street Kirkland WA, 98034",47.711566,-122.188281
Check Masters,"12840 Northeast 85th Street Kirkland WA, 98033",47.679702,-122.167512
Moneytree,"12407 Northeast 124th Street Kirkland WA, 98034 Kirkland WA, 98033",47.70875,-122.17572
Access Cash Payday Advance,"5710 Ruddell Road Southeast Suite 6 Lacey WA, 98503",46.99715,-122.80629
Advance America,"909 Sleater Kinney Road Southeast Lacey WA, 98503",47.039899,-122.834825
Allied Cash Advance,"5840 Pacific Ave Se Ste A Lacey WA, 98503",47.03729,-122.80569
Ace Cash Express,"10519 Bridgeport Way Sw Lakewood WA, 98499",47.161586,-122.50484
Ace Cash Express,"7701 Steilacoom Blvd Sw Ste 4 Lakewood WA, 98498",47.179682,-122.540365
Advance America,"5700 100th Street Southwest Lakewood WA, 98499",47.166312,-122.513179
Advance America,"7801 Bridgeport Way W Ste 100 Lakewood WA, 98499",47.186288,-122.517779
Advance Cash,"5939 Steilacoom Blvd Sw Lakewood WA, 98499",47.176683,-122.517551
Allied Cash Advance,"9523 Gravelly Lake Dr Sw Lakewood WA, 98499",47.170875,-122.518635
B & I Check Cashing,"8012 South Tacoma Way Suite 20 Lakewood WA, 98499",47.18338,-122.486075
Cash N Advance,"15109 Union Avenue Southwest Lakewood WA, 98498",47.121241,-122.554071
Check Into Cash,"11011 Bridgeport Way Southwest Lakewood WA, 98499",47.157301,-122.503944
Check Into Cash,"5605 Lakewood Towne Center Blv Lakewood WA, 98499",47.165293,-122.511093
Checkmate,Lakewood,47.1718,-122.5185
J & S Payday Loans Inc,"10307 Bridgeport Way Southwest Suite A Lakewood WA, 98499",47.163842,-122.506283
Kash It Inc,"15206 Union Avenue Southwest Suite 2 Lakewood WA, 98498",47.121,-122.555603
Loan Mart Money Mart,"10011 Bridgeport Way Sw Ste 70 Lakewood WA, 98499",47.166107,-122.508466
Monetary Management Of Ca Inc,"10009 Bridgeport Way Sw Lakewood WA, 98499",47.16643,-122.509208
Moneyback,"15206 Union Avenue Southwest Suite 2 Lakewood WA, 98498",47.121,-122.555603
Moneyback,"15109 Union Avenue Southwest Lakewood WA, 98498",47.121241,-122.554071
Moneyback,"11916 Pacific Highway Southwest Lakewood WA, 98499",47.149127,-122.505458
Moneytree,"8904 S Tacoma Way Lakewood WA, 98499",47.176203,-122.484994
Payday Xpress,"12500 Bridgeport Way Southwest Lakewood WA, 98499",47.14426,-122.50461
Rent A Center,"5309 100th St Sw Lakewood WA, 98499",47.16706,-122.507944
Cash & Go,"1059 14th Avenue Longview WA, 98632",46.13337,-122.93735
Check Into Cash of Washington,"780 Ocean Beach Hwy Longview WA, 98632",46.14643,-122.92971
Longview Bail Bonds,"1303 Commerce Avenue Longview WA, 98632",46.137277,-122.934731
Moneytree,"923 Ocean Beach Hwy Longview WA, 98632",46.145999,-122.928763
Quik Cash,"827 Ocean Beach Hwy Ste B Longview WA, 98632",46.14594,-122.927071
Speedy Cash,"3125 Ocean Beach Hwy Longview WA, 98632",46.14731,-122.96454
Til Payday Inc,"1146 15th Avenue Suite B Longview WA, 98632",46.135198,-122.937526
Ace Cash Express,"4520 200th St Sw Lynnwood WA, 98036",47.817027,-122.294191
Advance America,"4320 196th Street Southwest Suite F Lynnwood WA, 98036",47.820577,-122.291555
Allied Cash Advance,"13619 Mukilteo Speedway Lynnwood WA, 98087",47.87444,-122.27562
Allied Cash Advance,"1233 164th St Sw Lynnwood WA, 98087",47.850257,-122.250912
Check Into Cash,"3815 196th Street Southwest Suite 124 Lynnwood WA, 98036",47.82102,-122.28459
Check Into Cash,"20101 44th Ave W Lynnwood WA, 98036",47.8166,-122.2922
Check Masters,"19920 Highway 99 Suite B Lynnwood WA, 98036",47.81812,-122.31796
Checkmate,"3925 196th Street Southwest Suite B Lynnwood WA, 98036",47.821241,-122.286535
Chek Protekt,"5700 188th Street Southwest Suite B Lynnwood WA, 98037",47.827893,-122.312581
Dollarwise,"20007 44th Avenue West Suite B Lynnwood WA, 98036",47.81733,-122.29223
Fast Cash Loans,"Lynnwood Lynnwood WA, 98036",47.817755,-122.325035
Mc Carthy Finance Inc,"1120 164th St Sw Ste A1 Lynnwood WA, 98087",47.849115,-122.248789
Moneytree,"17605 Highway 99 Lynnwood WA, 98037",47.83881,-122.29973
Nationwide Acceptance,"4525 Southwest 164th Street Lynnwood WA, 98037",47.85143,-122.29541
Ace Cash Express,"1212 State Ave Marysville WA, 98270",48.06441,-122.17684
Advance America,"9414 State Avenue Suite E Marysville WA, 98270",48.08144,-122.1742
Check Into Cash,"1242 State Ave Marysville WA, 98270",48.062941,-122.174905
Check-X-Change,"9302 State Avenue Marysville WA, 98270",48.080133,-122.175069
Fastcashloans,"1227 State Ave Marysville WA, 98270",48.062288,-122.177577
Moneytree Inc,"9815 State Ave Marysville WA, 98270, 98632",48.08454,-122.171821
A Skagit Pawn & Payday Loan,"628 West Division Street Mount Vernon WA, 98273",48.421384,-122.343363
Check Into Cash,"323 East College Way Suite B Mount Vernon WA, 98273",48.436064,-122.336782
Moneytree,"425 East College Way Suite 105 Mount Vernon WA, 98273",48.436153,-122.334357
Rent A Center,"220 E College Way Mount Vernon WA, 98273",48.43579,-122.33968
Ace Cash Express,"310 Se Midway Blvd Oak Harbor WA, 98277",48.295989,-122.642867
Advance America Cash Advance,"31595 State Route 20 Oak Harbor WA, 98277",48.29037,-122.6579
Cashback,"31780 State Route 20 Suite 2 Oak Harbor WA, 98277",48.35828,-122.62239
Cca Check Cashing Advance,"31531 Sr 20 Oak Harbor WA, 98277",48.262386,-122.686555
Credit Bureau Of Island County,"1175 Southeast Ireland Street Oak Harbor WA, 98277",48.289116,-122.646751
Moneytree,"31179 State Route 20 Ste 102 Oak Harbor WA, 98277",48.2857,-122.66162
Access Cash,"9408 Martin Way E Ste 3 Olympia WA, 98516",47.06148,-122.7414
Access Cash Inc,"4320 Martin Way East Olympia WA, 98516",47.048559,-122.82865
Access Cash Payday Advance,"Olympia Olympia WA, 98501",47.0443105,-122.899974
Ace Cash Express,"400 Cooper Point Rd Sw Ste 14 Olympia WA, 98502",47.045246,-122.940018
Ace Cash Express,"3430 Pacific Ave Se Olympia WA, 98501",47.042923,-122.845892
Advance Cash,"7941 Martin Way E Olympia WA, 98516",47.05556,-122.77014
Allied Cash Advance,"3959 Martin Way E Olympia WA, 98506",47.04741,-122.835896
Check Into Cash,"2106 Harrison Avenue Northwest Olympia WA, 98502",47.04615,-122.92732
Check Into Cash of Washington,"1401 Marvin Rd Ne Ste 308 Olympia WA, 98516",47.06039,-122.77023
Checkmate,Olympia,47.045,-122.8949
Fairway Collection Services,"1428 4th Avenue East Olympia WA, 98506",47.046083,-122.88326
Money Depot,"400 Cooper Point Rd Sw Ste F3 Olympia WA, 98502",47.045246,-122.940018
Paycheck,"1905 4th Avenue East Olympia WA, 98506",47.04565,-122.875269
Payday Express,"1621 Harrison Avenue Northwest Olympia WA, 98502",47.045714,-122.922147
Timberland Collections,"Olympia Olympia WA, 98501",47.0443105,-122.899974
United Check Cashing,"4320 Martin Way E Olympia WA, 98516",47.048559,-122.82865
United Postal Express,"3430 Pacific Avenue Southeast Suite A6 Olympia WA, 98501",47.042923,-122.845892
Ace Cash Advance,"3405 W Court St Pasco WA, 99301",46.24248,-119.13597
Check Into Cash,"5210 N Road 68 Pasco WA, 99301",46.274426,-119.186254
Cs Check Cashing,"1406 North 20th Avenue Pasco WA, 99301",46.24075,-119.117868
Medical Credit Service,"510 North 20th Avenue Suite D Pasco WA, 99301",46.233568,-119.117764
Moneytree,"1406 North 20th Avenue Suite A Pasco WA, 99301",46.24075,-119.117868
Profit Aids Inc,"510 North 20th Avenue Pasco WA, 99301",46.233568,-119.117764
Quik Cash,"4525 N Road 68 Pasco WA, 99301",46.34492,-119.243564
Rent A Center,"2020 W Court St Pasco WA, 99301",46.241184,-119.119147
Spot Check,"Pasco Pasco WA, 99301",46.2349,-119.1414
Spotcheck,"510 North 20th Avenue Suite B Pasco WA, 99301",46.233568,-119.117764
Check Into Cash,"594 Se Bishop Blvd Pullman WA, 99163",46.71904,-117.16402
Exs Electronic Exchange Systems,"102 W Main Street Mall Pullman WA, 99163",46.72998,-117.18268
Ace Cash Express,"4121 S Meridian Puyallup WA, 98373",47.15167,-122.29284
Ace Cash Express,"311 River Rd Puyallup WA, 98371",47.200211,-122.297845
Advance America,"16116 Meridian East Puyallup WA, 98375",47.10993,-122.29348
Advance America,"Meridian Avenue Puyallup WA, 98371",47.2367326,-122.2943172
Advance America,"12413 Meridian East Suite C Puyallup WA, 98373",47.143531,-122.292357
Advance Cash,"219 North Meridian Puyallup WA, 98371",47.192889,-122.293461
Allied Cash Advance,"11012 Canyon Rd E Ste 10 Puyallup WA, 98373",47.15621,-122.35727
Cash It Inc,"3823 Meridian St S Puyallup WA, 98373",47.1549,-122.29286
Cash It Inc,"S Hill Puyallup WA, 98371",47.18,-122.3
Cash Store,"101 37th Ave Se Ste A1 Puyallup WA, 98374",47.158255,-122.292467
Checkmate,Puyallup,47.1849,-122.2921
Christina Thurman,"3924 S Meridian Ste C Puyallup WA, 98373",47.154,-122.293567
Express Financial Centers,"17526 Meridian E Puyallup WA, 98375",47.09725,-122.29754
Instant Cash,"13507 Meridian East Suite I Puyallup WA, 98373",47.1338,-122.29293
Monetary Management Of Ca Inc,"3712 9th St Sw Ste 3 Puyallup WA, 98373",47.156149,-122.304694
Rent A Center,"601 S Meridian Puyallup WA, 98371",47.18713,-122.29356
A A A A Collections,"594 Se Bishop Blvd Pullman WA, 99163",46.71904,-117.16402
Ace America’s Cash Express,"251 Sunset Boulevard North Renton WA, 98055",47.48504,-122.19665
Ace Cash Express,"3901 Ne 4th St Ste 111 Renton WA, 98056",47.48785,-122.165286
Advance America,"601 South Grady Way Suite K Renton WA, 98055",47.470787,-122.211356
Advance America,"3904 Ne 4th St Renton WA, 98056",47.488898,-122.166566
Advance Til Payday,"1222 Bronson Way North Suite 110 Renton WA, 98055",47.483546,-122.201399
Check Into Cash,"64 Rainier Avenue South Renton WA, 98055",47.484556,-122.215932
Check Masters,"134 Rainier Ave S Renton WA, 98057",47.481877,-122.216611
Checkmate,"3901 Northeast 4th Street Renton WA, 98056",47.48785,-122.165286
Checkmate Renton,"1250 Sw 43rd St Ste D Renton WA, 98055",47.44126,-122.23393
Monetary Management Of Ca Inc,"10561 Se Carr Rd Renton WA, 98055",47.444419,-122.199373
Money Tree,"17234 140th Avenue Southeast Renton WA, 98058",47.447388,-122.152584
Moneytree,"4033 Northeast Sunset Boulevard Suite 5 Renton WA, 98056",47.50412,-122.16547
Moneytree,"528 Rainier Avenue South Renton WA, 98055",47.475923,-122.214343
Moneytree,"4033 Ne Sunset Blvd Renton WA, 98056",47.50412,-122.16547
Moneytree,"528 Rainier Ave S Renton WA, 98057",47.475923,-122.214343
Quik Cash,"3005 Ne Sunset Blvd Renton WA, 98056",47.502278,-122.177627
Ace Cash Express,"1301 Jadwin Ave Richland WA, 99354",46.285959,-119.278417
Cash Store,"960 George Washington Wy Richland WA, 99352",46.27979,-119.27286
Check Into Cash,"1733 George Washington Wy Richland WA, 99352",46.29767,-119.27443
Evergreen Financial Services,"Richland Richland WA, 99352",46.23,-119.23
Kb Loan Store,"427 Wellsian Way Richland WA, 99352",46.270246,-119.285491
Moneytree,"1057 George Washington Way # A Richland WA, 99352",46.282234,-119.274196
Quik Cash,"1402 Jadwin Ave Richland WA, 99354",46.289744,-119.277032
E-Z Check Cash,"19019 International Boulevard Seatac WA, 98188",47.432495,-122.295868
Ace America’s Cash Express,"1828 1/2 Broadway Seattle WA, 98122",47.61,-122.32
Ace Cash Express,"1028 Madison St Seattle WA, 98104",47.609368,-122.325456
Ace Cash Express,"4519 University Way Ne Seattle WA, 98105",47.661823,-122.31345
Ace Cash Express,"3109 Rainier Ave S Seattle WA, 98144",47.575557,-122.296314
Ace Cash Express,"829 Ne Northgate Way Seattle WA, 98125",47.70822,-122.319225
Ace Cash Express,"13754 Aurora Ave N Ste A Seattle WA, 98133",47.730169,-122.34458
Advance America,"3004 Northeast 127Th Street Seattle WA, 98125",47.721359,-122.296071
Advance America,"306 23rd Ave S Seattle WA, 98144",47.600057,-122.301986
Advance America,"2756 Ne 45th St Seattle WA, 98105",47.661457,-122.296057
Advance America,"2100 N Northgate Way Ste C Seattle WA, 98133",47.709024,-122.333495
Advance America,"8014 Lake City Way Ne Seattle WA, 98115",47.68694,-122.31283
Alki Mail & Dispatch,"2536 Alki Avenue Southwest Seattle WA, 98116",47.580375,-122.406802
Cash 1,"12230 Aurora Ave N Seattle WA, 98133",47.718781,-122.344392
Cash Advantedge,"6026 Martin Luther King Jr Way Seattle WA, 98118",47.547547,-122.285344
Cash On The Spot,"1105 23rd Ave Seattle WA, 98122",47.611751,-122.30301
Cashoninternet.Com,"Seattle Seattle WA, 98101",47.605064,-122.3399165
Check Cashing At Money Mart,"1407 East Madison Street Seattle WA, 98122",47.61405,-122.31359
Check Cashing At Money Mart,"9612 17th Avenue Southwest Seattle WA, 98106",47.517068,-122.356015
Check Cashing At Money Mart,"7266 Rainier Avenue South Seattle WA, 98118",47.537119,-122.27003
Check Cashing At Money Mart,"6055 Mrtn Lthr Kng Jr Wy Seattle WA, 98118",47.54739,-122.2863
"Check Cashing At Money Mart -1206 1St Avenue Seattle WA, 98101",Tel: (206)-622-2274,-38.344259,144.981791
Check Cashing At Money Mart,"824 Northeast 45th Street Seattle WA, 98105",47.661561,-122.319084
Check Into Cash,"3223 Northeast 145Th Street Seattle WA, 98155",47.733346,-122.293016
Check Into Cash,"5963 Corson Ave S Seattle WA, 98108",47.548042,-122.322166
Check Into Cash of Washington,"15216 Aurora Ave N Seattle WA, 98133",47.7392,-122.34514
Check Mart Check Cashing Cente,"501 3rd Ave Seattle WA, 98104",47.602112,-122.33125
Check Mart Check Cashing Cente,"9612 17th Ave Sw Seattle WA, 98106",47.517068,-122.356015
Check Masters,"323 Broadway East Seattle WA, 98102",47.622202,-122.320926
Check Masters,"1418 1St Avenue Seattle WA, 98101",47.60807,-122.33921
Check Masters,"2006 Fairview Avenue Seattle WA, 98121",47.618269,-122.333868
Check Masters,"Seattle Seattle WA, 98177",47.77,-122.38
Check Masters,"2300 North 45th Street Seattle WA, 98103",47.661668,-122.330858
Check Masters,"9841 Aurora Avenue North Seattle WA, 98103",47.700855,-122.345091
Check Masters,"539 Queen Anne Ave N Seattle WA, 98109",47.62378,-122.3568
Check Masters,"2006 Fairview Ave Seattle WA, 98121",47.618269,-122.333868
Check Masters,"10416 Aurora Ave N Seattle WA, 98133",47.70416,-122.34459
Check Masters,"2146 Southwest 36th Street Tacoma WA, 98402",47.25,-122.44
Check Masters,"11064 Lake City Way Ne Ste 6 Seattle WA, 98125",47.709996,-122.300187
Check Masters,"1313 156th Ave Ne Seattle WA, 98101",47.61,-122.34
Check Masters,"2003 132nd St Se Murphys Cor Seattle WA, 98101",47.61,-122.34
Check Masters,Lake City Store,53.3381035,-6.2591635
Check X Change,"6538 4th Ave S Seattle WA, 98108, 98409",47.5448,-122.32951
Checkrite,"Seattle Seattle WA, 98101",47.605064,-122.3399165
Cummins-Allison Corporation,"6118 6th Avenue South Seattle WA, 98108",47.54734,-122.325901
Cummins-Allison Corporation,"655 South Orcas Street Suite 100 Seattle WA, 98108",47.551275,-122.325753
Dax Exchange Video & Gifts,"6951 Mrtn Lthr Kng Jr Wy Seattle WA, 98118",47.54033,-122.28289
Delaware Cheque Cashing,"9211 Delridge Way Sw Seattle WA, 98106",47.520596,-122.358314
Dollarwise,"15001 Tukwla Intrntnl Boulevard Seattle WA, 98188",47.520596,-122.358314
Dollarwise,"9211 Delridge Way Southwest Seattle WA, 98106",47.520596,-122.358314
Drico Recovery Services,"4719 University Way Northeast Seattle WA, 98105",47.663737,-122.313394
E Z Check Cash,"1001 4th Ave Seattle WA, 98154",47.60602,-122.33298
Grace Foreign Exchange,"7101 Mrtn Lthr Kng Jr Wy Seattle WA, 98118",47.53943,-122.28246
Hedman Co,"Seattle Seattle WA, 98101",47.605064,-122.3399165
Loan Mart Money Mart,"9612 17th Ave Sw # 1144 Seattle WA, 98106",47.517068,-122.356015
Loan Mart Money Mart,"824 Ne 45th St Seattle WA, 98105",47.661561,-122.319084
Loan Mart Money Mart,"6055 Martin Luther King Jr Way Seattle WA, 98118",47.546445,-122.286331
Mail Boxes Etc Usa,Store,53.35,-6.26
Mc Carthy Finance Inc,"2300 N 45th St Seattle WA, 98103",47.661668,-122.330858
Merchantservice.Com,"1121 Westlake Avenue North Seattle WA, 98124",47.628627,-122.340681
Monetary Management Of Ca Inc,"1206 1St Ave Seattle WA, 98101",47.61,-122.34
Monetary Management Of Ca Inc,"6055 M L King Jr Way S Seattle WA, 98118",47.54739,-122.2863
Monetary Management Of Ca Inc,"7266 Rainier Ave S Seattle WA, 98118",47.537119,-122.27003
Monetary Management Of Ca Inc,"652 Strander Blvd A Seattle WA, 98188",47.457268,-122.245244
Monetary Management Of Ca Inc,"1407 E Madison St Seattle WA, 98122",47.61405,-122.31359
Monetary Management Of Ca Inc,"1774 Rainier Ave S Seattle WA, 98144",47.58727,-122.30482
Money Mart,"605 Mlk J Seattle WA, 98101",47.61,-122.34
Money Tree,"2019 Northwest Market Street Suite C Seattle WA, 98107",47.668473,-122.383355
Money Tree,"Avenue North Seattle WA, 98101",47.61,-122.34
Money Tree,"10500 Greenwood Avenue North Seattle WA, 98133",47.705318,-122.354921
Money Tree,"6527 4th Avenue South Seattle WA, 98108",47.544521,-122.329926
Money Tree,"2019 Northwest Market Street Suite C Seattle WA, 98107",47.668473,-122.383355
Money Tree,"715 3Rd Avenue Seattle WA, 98104",47.60352,-122.33222
Money Tree,"551 Northeast Northgate Way Seattle WA, 98125",47.708283,-122.320871
Money Tree,"4012 Sw Alaska St Seattle WA, 98116",47.561386,-122.383337
Money Tree,"528 Rainier Ave S Seattle WA, 98144",47.5988761,-122.3142005
Money Tree,"1528 3rd Ave Seattle WA, 98101",47.61005,-122.33795
Money Tree,"12513 Lake City Way Ne Seattle WA, 98125",47.71975,-122.295228
Money Tree,"2019 Nw Market St Seattle WA, 98107",47.668473,-122.383355
Money Tree,"4436 Rainier Ave S Seattle WA, 98118",47.562975,-122.287536
Money Tree,"1528 3rd Ave # Ae Seattle WA, 98101",47.61005,-122.33795
Money Tree,"1400 Madison St Seattle WA, 98104",47.610975,-122.321683
Paymaster,"Seattle Seattle WA, 98148",47.46,-122.33
Quick Cash Inc,"9456 35th Ave Sw Seattle WA, 98126",47.51906,-122.37671
Quick Cash Inc,"9436 Rainier Ave S Seattle WA, 98118",47.520273,-122.263429
Quik Cash,"12421 Renton Ave S Seattle WA, 98178",47.491695,-122.240573
United Cash Advance,"1318 East Pike Street Seattle WA, 98122",47.61426,-122.314643
Associated Credit Service Inc,"1539 Northeast 177th Street Suite C Shoreline WA, 981553",47.757265,-122.311643
Check Into Cash,"15216 Aurora Avenue North Shoreline WA, 98133",47.7392,-122.34514
Check Masters,"North Aurora Store, Seattle Stores",46.21667,15.31667
Cash It Incorporated,"141st Spanaway WA, 98387",47.08,-122.32
Cash N Advance,"15014 Pacific Avenue Spanaway WA, 98387",47.1206148,-122.444485
Check Into Cash,"17701 Pacific Avenue South Spanaway WA, 98387",47.09636,-122.43485
Express Financial Centers,"17501 Pacific Ave S Spanaway WA, 98387",47.09807,-122.43483
Ace Cash Advance,"12027 E Sprague Ave Spokane WA, 99206",47.6566026,-117.2723853
Ace Cash Advance,"8701 N Division St Spokane WA, 99218",47.73698,-117.41212
Ace Cash Express,"814 W Francis Ave Spokane WA, 99205",47.71579,-117.42314
Ace Cash Express,"3923 N Market St Spokane WA, 99207",47.69376,-117.36548
Ace Cash Express,"3505 N Division St Spokane WA, 99207",47.689975,-117.411522
Action Tax Express,"4750 North Division Street Spokane WA, 99207",47.70282,-117.40865
Advance America,"1601 North Division Street Spokane WA, 99207",47.67173,-117.41122
Advance America,"2401 West Wellesley Avenue Spokane WA, 99205",47.699302,-117.447386
Advance Til Payday,"520 South Thor Street Spokane WA, 99202",47.651116,-117.360618
Advance Til Payday,"4507 North Nevada Street Spokane WA, 99207",47.699494,-117.395337
Allied Cash Advance,"410 E Holland Ave Spokane WA, 99218",47.743541,-117.405259
Automated Accounts Inc,"220 West Francis Avenue Spokane WA, 99205",47.715443,-117.414878
Cash Express Inc,"2323 N Ash St Ste A Spokane WA, 99205",47.67919,-117.437322
Cash In A Flash,"223 North Division Street Spokane WA, 99202",47.65941,-117.41137
Cash In A Flash,"2503 East Sprague Avenue Spokane WA, 99202",47.65755,-117.37245
Cash Source,"1616 West 2Nd Avenue Spokane WA, 99204",47.6548,-117.43639
Cash Store,"5920 North Division Street Spokane WA, 99208",47.712032,-117.41081
Cash Store,"9301 North Division Street Suite B Spokane WA, 99218",47.74234,-117.412078
Cashlinq Com,"101 East Magnesium Road Suite 200 Spokane WA, 99208",47.737041,-117.409394
Check Into Cash,"15735 East Broadway Avenue Spokane WA, 99201",47.66,-117.42
Check Into Cash,"920 North Division Street Spokane WA, 99202",47.665889,-117.410408
Check Into Cash of Washington,"555 E Francis Ave Spokane WA, 99208",47.716274,-117.401816
Check-X-Change,"4516 North Division Street Spokane WA, 99207",47.699702,-117.410804
Checks Cashed-Moneytree,"3527 East Sprague Avenue Suite 6 Spokane WA, 99202",47.65756,-117.35876
Honey Bee Check Cashing & Payd,"3415 N Market St Spokane WA, 99207",47.688576,-117.365575
Little Loan Shoppe America,"3029 East Mission Avenue Spokane WA, 99202",47.672149,-117.365829
Little Loan Shoppe America,"1514 West Northwest Boulevard Spokane WA, 99205",47.678918,-117.434767
Moneytree,"1420 West 3Rd Avenue Spokane WA, 99204",47.6538,-117.43313
Moneytree,"9222 N Newport Hwy Spokane WA, 99218",47.741287,-117.409242
Moneytree,"2926 S Regal St Spokane WA, 99223",47.62755,-117.368897
Moneytree,"4516 N Division St Spokane WA, 99207",47.699702,-117.410804
Moneytree Check Cashing,"3527 E Sprague Ave Spokane WA, 99202",47.65756,-117.35876
Moneytree Inc,"4808 E Sprague Ave Spokane WA, 99212",47.6571,-117.34015
Norris Wayne E,"1004 East 29th Avenue Spokane WA, 99203",47.627996,-117.395098
Quik Cash,"6515 N Division St Spokane WA, 99208",47.71737,-117.41163
Quik Cash,"1621 S Ray St Spokane WA, 99223",47.640463,-117.362709
Quik Cash,"3203 N Market St Spokane WA, 99207",47.68654,-117.365501
Rent A Center,"4223 N Division St Spokane WA, 99207",47.697228,-117.411601
Rent A Center,"824 E Francis Ave Spokane WA, 99208",47.714749,-117.396632
The Cash Store,"5920 North Division Street Spokane WA, 99208",47.712032,-117.41081
Advance America,"11422 East Sprague Avenue Spokane Valley WA, 99206",47.65675,-117.2508
Advance Til Payday,"11305 East Sprague Avenue Spokane Valley WA, 99206",47.65746,-117.25301
American Micro Loan Llc,"15124 East Sprague Avenue Spokane Valley WA, 99037",47.65682,-117.20141
Cash Store,"1509 North Pines Road Spokane Valley WA, 99206",47.67125,-117.24051
Cash Store,"8901 East Trent Avenue Suite 103 Spokane Valley WA, 99212",47.681601,-117.284509
Check Into Cash,"15735 East Broadway Avenue Spokane Valley WA, 99037",47.664811,-117.191083
Check Into Cash,"1521 North Argonne Road Spokane Valley WA, 99212",47.671145,-117.283271
Check Point Check Cashing,"12510 East Sprague Avenue Suite 8 Spokane Valley WA, 99216",47.65697,-117.23734
Check-X-Change,"12510 East Sprague Avenue Spokane Valley WA, 99216",47.65697,-117.23734
Fbi F & E Check Protector Company,"10319 East Sinto Avenue Spokane Valley WA, 99206",47.669528,-117.265526
Money Tree Inc,"4808 East Sprague Avenue Spokane Valley WA, 99212",47.6571,-117.34015
Valley Empire Collection,"11707 East Montgomery Drive Spokane Valley WA, 99206",47.675717,-117.247459
Ace Cash Express,"13127 Pacific Ave S Tacoma WA, 98444",47.137526,-122.434288
Ace Cash Express,"8425 S Hosmer St Tacoma WA, 98444",47.179993,-122.46278
Ace Cash Express,"1314 72nd St E Tacoma WA, 98404",47.19164,-122.41169
Ace Cash Express,"5013 S 56th St Tacoma WA, 98409",47.20535,-122.50216
Ace Cash Express,"7610 S Tacoma Way Tacoma WA, 98409",47.18804,-122.48376
Ace Cash Express,"7030 Tacoma Mall Blvd Tacoma WA, 98409",47.192709,-122.463505
Ace Cash Express,"4916 Center St Tacoma WA, 98409",47.233482,-122.503598
Ace Cash Express,"3713 Pacific Ave Tacoma WA, 98418",47.22287,-122.43362
Ace Cash Express,"15725 Pacific Ave S Tacoma WA, 98444",47.12382,-122.43456
Ace Cash Express,"10707 Pacific Ave S Tacoma WA, 98444",47.159732,-122.433359
Ace Cash Express,"6302 6th Ave Tacoma WA, 98406",47.255099,-122.521093
Ace Cash Express,"2632 S 38th St Tacoma WA, 98409",47.22239,-122.47163
Advance America,"102 Military Road South Tacoma WA, 98444",47.11895,-122.43212
Advance America,"2727 North Pearl Street Tacoma WA, 98407",47.27228,-122.51579
Advance America,"4915 Center St Ste D Tacoma WA, 98409",47.234712,-122.503429
Advance America,"101 S 38th St Tacoma WA, 98418",47.22335,-122.431691
Advance America,"1625 E 72nd St Tacoma WA, 98404",47.191949,-122.406169
Advance America,"11106 Pacific Ave S Tacoma WA, 98444",47.156091,-122.436071
Advance America,"1690 Marine View Dr Tacoma WA, 98422",47.28017,-122.38884
Advance America,"3602 6th Ave Tacoma WA, 98406",47.255091,-122.483999
Associated Credit Service Inc,"Tacoma Tacoma WA, 98402",47.25,-122.44
Best Check Cashing,"4314 East Portland Avenue Suite 3 Tacoma WA, 98404",47.217798,-122.408175
Cash 1,"7231 S Tacoma Way Tacoma WA, 98409",47.19172,-122.4836
Cash It Inc,"14117 Pacific Avenue South Suite C Tacoma WA, 98444",47.128799,-122.434192
Cash Plus,"Tacoma Tacoma WA, 98354",47.16956,-122.46387
Cash Plus,"2315 North Pearl Street Suite 6 Tacoma WA, 98406",47.26915,-122.51441
Cash Plus,"1812 South Mildred Street Tacoma WA, 98465",47.244527,-122.526837
Cashback Catalog Sales Inc,"15014 Pacific Avenue South Tacoma WA, 98444",47.120274,-122.435448
Cashback Catalog Sales Inc,"Tacoma Tacoma WA, 98402",47.25,-122.44
Check Into Cash,"5401 6Th Avenue Tacoma WA, 98406",47.257037,-122.508985
Check Into Cash,"1407 East 72Nd Street Tacoma WA, 98404",47.19182,-122.40966
Checkback Llc,"1130 Broadway Suite 202 Tacoma WA, 98402",47.252133,-122.440154
Checkpoint,Check Loans,40.600727,-75.497838
Dollar Wise,"3833 Pacific Ave Ste A Tacoma WA, 98418",47.22272,-122.43394
Dollarwise,"2146 Southwest 36th Street Tacoma WA, 98402",47.25,-122.44
Dollarwise,"38th & Pacific Avenue Tacoma WA, 98402",47.25,-122.44
Express Financial Centers,"8842 Pacific Ave Tacoma WA, 98444",47.176856,-122.43408
International Bancard Srvs,"Tacoma Tacoma WA, 98402",47.25,-122.44
Loan Mart Money Mart,"1625 E 72nd St Ste 814 Tacoma WA, 98404",47.191949,-122.406169
Loan Mart Money Mart,"2901 S 38th St Ste D Tacoma WA, 98409",47.22278,-122.47403
Loan Mart Money Mart,"8225 Pacific Ave Tacoma WA, 98408",47.181639,-122.433726
Mj Serenity,"5700 100th St Sw Ste 630 Tacoma WA, 98499",47.166312,-122.513179
Monetary Management Of Ca Inc,"1701 Division Ave Tacoma WA, 98403",47.256756,-122.462174
Monetary Management Of Ca Inc,"1901 S 72Nd St Ste 36B Tacoma WA, 98408",47.192765,-122.459758
Money Mart,"1701 Division Avenue Tacoma WA, 98403",47.256756,-122.462174
Money Mart,"814 72nd St E Tacoma WA, 98404",47.191346,-122.420151
Moneytree,"10435 Pacific Avenue South Tacoma WA, 98444",47.16111,-122.433604
Moneytree,"2528 South 38th Street Suite E Tacoma WA, 98409",47.22209,-122.47104
Moneytree,"10437 Pacific Ave S Tacoma WA, 98444",47.161236,-122.4336
Quik Cash,"7030 Pacific Ave Tacoma WA, 98408",47.19216,-122.43411
Quik Cash,"14125 Pacific Ave S Ste D Tacoma WA, 98444",47.12906,-122.43464
Quik Cash,"6414 Yakima Ave Tacoma WA, 98408",47.198752,-122.444778
Access Cash,"2711 Ne Andresen Rd Vancouver WA, 98661",45.642219,-122.599183
Accounts Receivable,"1307 Northeast 78th Street Vancouver WA, 98665",45.678139,-122.65884
Ace America’s Cash Express,"Vancouver Vancouver WA, 98660",45.63,-122.67
Ace Cash Express,"6721 Ne Fourth Plain Blvd Vancouver WA, 98661",45.64408,-122.60319
Ace Cash Express,"2719 E Fourth Plain Blvd Vancouver WA, 98661",45.63782,-122.64213
Ace Cash Express,"2714 Ne 114th Ave Vancouver WA, 98684",45.642452,-122.555949
Advance America,"318 Ne 99th St Vancouver WA, 98665",45.693,-122.67336
Advance America,"13503 Se Mill Plain Blvd Ste C Vancouver WA, 98684",45.618016,-122.535223
Advance America,"1900 Ne 162nd Ave Ste D108 Vancouver WA, 98684",45.63665,-122.50733
Advance America,"8048 E Mill Plain Blvd Vancouver WA, 98664",45.62537,-122.59048
Advance America,"8101 Ne Parkway Dr Ste G2 Vancouver WA, 98662",45.654968,-122.589667
Advance America,"11500 Ne 76th St Ste A2 Vancouver WA, 98662",45.67852,-122.55451
Advance America,"7509 Ne Fourth Plain Rd Vancouver WA, 98662",45.645553,-122.595664
Bank Drafting Nw,"Vancouver Vancouver WA, 98662",45.66,-122.58
C Z Payday Loans Inc,"212 Ne 164th Ave Ste 23 Vancouver WA, 98684",45.62227,-122.505159
Cash & Go,Vancouver,49.2609,-123.1139
Cash & Go,Vancouver,49.2609,-123.1139
Cash Connection,"2800 East Fourth Plain Boulevard Vancouver WA, 98661",45.638227,-122.641414
Cash Store,"5508 Northeast Fourth Plain Boulevard Vancouver WA, 98661",45.642151,-122.614381
Cash Store,"1108 Northeast 78th Street Vancouver WA, 98665",45.679317,-122.660866
Check Cash Pacific,"516 Se Chkalov Dr Vancouver WA, 98683",45.617327,-122.555645
Check Cashing,"10309 Se Mill Plain Blvd Vancouver WA, 98664",45.62065,-122.566412
Check Into Cash,"3021 Northeast 72Nd Drive Suite 5 Vancouver WA, 98661",45.67422,-122.63917
Check Into Cash,"1307 Northeast 78Th Street Vancouver WA, 98665",45.678139,-122.65884
Check Into Cash,"221 Southeast 104Th Avenue Vancouver WA, 98664",45.619442,-122.565231
Checkmate,Fourth Plain,45.64,-122.64
Cic Financial Services,"221E Ne 104th Ave Vancouver WA, 98664",45.622623,-122.56464
Cz Payday Loans,"212 Northeast 164th Avenue Suite 23 Vancouver WA, 98684",45.62227,-122.505159
Cz Payday Loans,"2700 Northeast Andresen Road Suite D1 Vancouver WA, 98661",45.64202,-122.601426
Cz Payday Loans,"10501 Northeast Highway 99 Vancouver WA, 98686",45.697427,-122.653645
Discovery Financial Services,"9707 Northeast 54th Street Suite A Vancouver WA, 98662",45.660919,-122.573042
Evergreen Payee Services,"1904 E 8th St Vancouver WA, 98661",45.626828,-122.651935
Moneytree,"9014 Ne Highway 99 Vancouver WA, 98665",45.6881,-122.660492
Nationwide Budget Finance,"6515 East Mill Plain Boulevard Vancouver WA, 98661",45.627029,-122.604195
Payday Advance,"7116 Northeast Fourth Plain Boulevard Vancouver WA, 98661",45.645287,-122.600172
Quik Cash,"6515 E Mill Plain Blvd Vancouver WA, 98661",45.627029,-122.604195
Quik Cash,"5210 E Fourth Plain Blvd Vancouver WA, 98661",45.641402,-122.617121
Quik Cash,"14930 Se Mill Plain Blvd Vancouver WA, 98684",45.617525,-122.518401
Rapid Cash,"7116 N E 4th Plain Rd Vancouver WA, 98660",45.64527,-122.60016
Rapid Cash,"10309 Se Mill Plain Blvd Vancouver WA, 98664",45.62065,-122.566412
Rent A Center,"4200 E Fourth Plain Blvd Vancouver WA, 98661",45.639215,-122.625257
The Cash Store,"5508 Northeast Fourth Plain Boulevard Vancouver WA, 98661",45.642151,-122.614381
The Cash Store,"Vancouver Vancouver WA, 98660",45.63,-122.67
The Cash Store,"At Highway 99 & Northeast 78 Vancouver WA, 98660",48,14
Urgent Money,"2800 E Fourth Plain Blvd Vancouver WA, 98661",45.638227,-122.641414
Urgent Money Service,"2611 E Fourth Plain Blvd Vancouver WA, 98661",45.63778,-122.64308
Ace Cash Express,"1410 Plaza Way Walla Walla WA, 99362",46.050384,-118.346454
Allied Cash Advance,"1932 E Isaacs Ave Walla Walla WA, 99362",46.07498,-118.306359
Allied Cash Advance,"307 S 9th Ave Walla Walla WA, 99362",46.060448,-118.346059
Cash Store,"524 South 9th Avenue Walla Walla WA, 99362",46.057611,-118.346363
Check Into Cash,"1417 Plaza Way # B Walla Walla WA, 99362",46.050149,-118.345604
Check Into Cash,"1425 Plaza Way Walla Walla WA, 99362",46.049706,-118.345422
Checks Cashed-Moneytree,"495 North Wilbur Avenue Walla Walla WA, 99362",46.076942,-118.305292
Kb Loan Store,"1648 Plaza Way Walla Walla WA, 99362",46.048007,-118.346666
Kb Loan Store,"1626 Plaza Way Walla Walla WA, 99362",46.047999,-118.347391
Moneytree,"495 N Wilbur Ave Walla Walla WA, 99362",46.076942,-118.305292
Qc Financial Services,"524 S 9th Ave Walla Walla WA, 99362",46.057611,-118.346363
Rent A Center,"1759 E Isaacs Ave Walla Walla WA, 99362",46.075307,-118.310181
Ace Cash Express,"903 N Wenatchee Ave Wenatchee WA, 98801",47.435879,-120.318991
Advance America,"1250 North Wenatchee Avenue Suite F Wenatchee WA, 98801",47.439352,-120.32461
Advance Till Payday,"328 North Chelan Avenue Wenatchee WA, 98801",47.429025,-120.318575
Allied Cash Advance,"1118 N Miller St Wenatchee WA, 98801",47.437662,-120.325147
Apple Valley Check Cashing,"120 North Mission Street Wenatchee WA, 98801",47.426116,-120.314533
Apple Valley Check Cashing,"849 S Mission St Wenatchee WA, 98801",47.411501,-120.30354
Check Into Cash of Washington,"212 5th Street Wenatchee WA, 98801",47.430582,-120.319176
Checks R Us,"1501 N Miller St Ste B Wenatchee WA, 98801",47.442154,-120.32425
Kwik Cash,"1501B North Miller Street Wenatchee WA, 98801",47.442154,-120.32425
Moneytree,"1500 North Wenatchee Av Wenatchee WA, 98801",47.444274,-120.328003
Olympic Credit Service Inc,"235 Okanogan Avenue Wenatchee WA, 98801",47.419223,-120.313593
Quik Cash,"1100 N Miller St Wenatchee WA, 98801",47.43709,-120.325351
Qwik Cash Inc,"1501B N Miller St Wenatchee WA, 98801",47.442154,-120.32425
Rent A Center,"39 S Wenatchee Ave Wenatchee WA, 98801",47.423607,-120.310387
Yccs,"Po Box 2143 Wenatchee WA, 98807",47.423611,-120.30917
Ace Cash Express,"2204 W Nob Hill Blvd Yakima WA, 98902",46.584061,-120.539224
Ace Cash Express,"7 S 5th Ave Yakima WA, 98902",46.599546,-120.514919
Advance America,"806 Summitview Avenue Yakima WA, 98902",46.599703,-120.520836
Allied Cash Advance,"1300 N 40th Ave Yakima WA, 98908",46.62102,-120.562645
Allied Cash Advance,"1008 S 3rd Ave Yakima WA, 98902",46.586487,-120.50982
Armada Corporation,"1600 South 36th Avenue Yakima WA, 98902",46.576145,-120.557116
Caseta De Cambio,"110 East Walnut Street Yakima WA, 98901",46.59966,-120.50463
Cash-A-Check,"1303 South 1St Street Yakima WA, 98901",46.586855,-120.496517
Check Into Cash,"901 Summitview Avenue Suite 130 Yakima WA, 98902",46.600114,-120.521864
Country Store Check Cashing,"129 South 1St Street Yakima WA, 98901",46.600094,-120.504518
Ed & Moes Payday Loans,"308 W Yakima Ave Yakima WA, 98902",46.600306,-120.512987
Evergreen Financial Services,"1214 North 16th Avenue Yakima WA, 98902",46.619597,-120.531107
Merchants Medical-Dental Service Bureau Inc,"Yakima Yakima WA, 98901",46.602458,-120.50149400000001
Money Merchant,"921 Summitview Avenue Yakima WA, 98902",46.59994,-120.52288
Moneytree,"1731 S 1st St Yakima WA, 98901",46.578648,-120.49188
Moneytree,"129 S 1st St Yakima WA, 98901",46.600094,-120.504518
Olympic Credit Service Inc,"Po Box 1661 Yakima WA, 98907",46.605121,-120.45416
Olympic Credit Service Inc,"714 East Viola Avenue Yakima WA, 98901",46.581033,-120.492134
Quick Cash Inc,"1336 S 1st St Yakima WA, 98901",46.58583,-120.49705
Quik Cash,"711 Summitview Ave Yakima WA, 98902",46.600021,-120.519798
Spot Check,"Tri City Yakima WA, 98901",46.6,-120.5
Spot Check,"Yakima Yakima WA, 98901",46.602458,-120.50149400000001
The Money Merchant,"921 Summitview Ave Yakima WA, 98902",46.59994,-120.52288
Y C C S-A National Collections System,"2021 South 3Rd Avenue Yakima WA, 98903",46.56834,-120.50943
